{"features": [{"geometry": {"coordinates": [-159.449569, 21.909064], "type": "Point"}, "id": "EDD00214", "properties": {"batt_1w_slope": -1.7908654673317665e-07, "batt_alert": 2, "batt_alert_off": 11.7, "batt_alert_on": 11.5, "dlnrid": "KA-0099", "level_alert": 1, "level_alert_off": 17.0, "level_alert_on": 19.0, "name": "Waita"}, "type": "Feature"}, {"geometry": {"coordinates": [-159.374047, 22.199978], "type": "Point"}, "id": "EDD00CC6", "properties": {"batt_1w_slope": -1.6604891903427043e-07, "batt_alert": 2, "batt_alert_off": 11.7, "batt_alert_on": 11.5, "dlnrid": "KA-0010", "level_alert": 1, "level_alert_off": 11.0, "level_alert_on": 12.0, "name": "Waiakalua"}, "type": "Feature"}, {"geometry": {"coordinates": [-156.355928, 20.887344], "type": "Point"}, "id": "EDD01162", "properties": {"batt_1w_slope": 0.0, "batt_alert": 0, "batt_alert_off": 11.7, "batt_alert_on": 11.5, "dlnrid": "MA-0073", "level_alert": 0, "level_alert_off": 13.0, "level_alert_on": 14.0, "name": "HC&S #24"}, "type": "Feature"}, {"geometry": {"coordinates": [-156.295303, 20.913631], "type": "Point"}, "id": "EDD01FB0", "properties": {"batt_1w_slope": 0.0, "batt_alert": 0, "batt_alert_off": 11.7, "batt_alert_on": 11.5, "dlnrid": "MA-0093", "level_alert": 0, "level_alert_off": 38.5, "level_alert_on": 39.5, "name": "Kaupakalua"}, "type": "Feature"}, {"geometry": {"coordinates": [-157.836839, 21.339133], "type": "Point"}, "id": "EDD024F8", "properties": {"batt_1w_slope": -5.560091942006194e-07, "batt_alert": 2, "batt_alert_off": 11.7, "batt_alert_on": 11.5, "dlnrid": "OA-0154", "level_alert": 1, "level_alert_off": 393.0, "level_alert_on": 394.0, "name": "Nuuanu No 1"}, "type": "Feature"}, {"geometry": {"coordinates": [-158.027664, 21.570833], "type": "Point"}, "id": "EDD02A2A", "properties": {"batt_1w_slope": -2.724148803243264e-06, "batt_alert": 2, "batt_alert_off": 11.7, "batt_alert_on": 11.5, "dlnrid": "OA-0018", "level_alert": 1, "level_alert_off": 980.4, "level_alert_on": 981.4, "name": "Opaeula 01"}, "type": "Feature"}, {"geometry": {"coordinates": [-159.396256, 22.017019], "type": "Point"}, "id": "EDD0378E", "properties": {"batt_1w_slope": 7.256832591004778e-08, "batt_alert": 2, "batt_alert_off": 11.7, "batt_alert_on": 11.5, "dlnrid": "KA-0012", "level_alert": 1, "level_alert_off": 44.0, "level_alert_on": 45.0, "name": "Kapaia"}, "type": "Feature"}, {"geometry": {"coordinates": [-159.400633, 22.063525], "type": "Point"}, "id": "EDD0395C", "properties": {"batt_1w_slope": -4.9428966358340314e-08, "batt_alert": 2, "batt_alert_off": 11.7, "batt_alert_on": 11.5, "dlnrid": "KA-0060", "level_alert": 1, "level_alert_off": 30.0, "level_alert_on": 31.0, "name": "Wailua"}, "type": "Feature"}, {"geometry": {"coordinates": [-159.493603, 21.912761], "type": "Point"}, "id": "EDD0411E", "properties": {"batt_1w_slope": -4.474980762278615e-07, "batt_alert": 2, "batt_alert_off": 11.7, "batt_alert_on": 11.5, "dlnrid": "KA-0103", "level_alert": 1, "level_alert_off": 48.0, "level_alert_on": 49.0, "name": "Aepo"}, "type": "Feature"}, {"geometry": {"coordinates": [-159.497156, 21.922019], "type": "Point"}, "id": "EDD04FCC", "properties": {"batt_1w_slope": -8.599770568745002e-07, "batt_alert": 2, "batt_alert_off": 11.7, "batt_alert_on": 11.5, "dlnrid": "KA-0104", "level_alert": 1, "level_alert_off": 27.0, "level_alert_on": 28.0, "name": "Huinawai"}, "type": "Feature"}, {"geometry": {"coordinates": [-159.488244, 21.896681], "type": "Point"}, "id": "EDD05268", "properties": {"batt_1w_slope": -3.140096051296087e-07, "batt_alert": 2, "batt_alert_off": 11.7, "batt_alert_on": 11.5, "dlnrid": "KA-0112", "level_alert": 1, "level_alert_off": 33.0, "level_alert_on": 34.0, "name": "Aepoeha"}, "type": "Feature"}, {"geometry": {"coordinates": [-159.528314, 21.927792], "type": "Point"}, "id": "EDD05CBA", "properties": {"batt_1w_slope": -4.420258006786438e-07, "batt_alert": 2, "batt_alert_off": 11.7, "batt_alert_on": 11.5, "dlnrid": "KA-0117", "level_alert": 1, "level_alert_off": 21.0, "level_alert_on": 22.0, "name": "Elua"}, "type": "Feature"}, {"geometry": {"coordinates": [-159.430961, 22.186617], "type": "Point"}, "id": "EDD067F2", "properties": {"batt_1w_slope": 7.69525333155196e-08, "batt_alert": 2, "batt_alert_off": 11.7, "batt_alert_on": 11.5, "dlnrid": "KA-0024", "level_alert": 1, "level_alert_off": 9.5, "level_alert_on": 10.5, "name": "Kalihiwai"}, "type": "Feature"}, {"geometry": {"coordinates": [-159.468631, 21.941389], "type": "Point"}, "id": "EDD06920", "properties": {"batt_1w_slope": 1.7005755145490083e-07, "batt_alert": 2, "batt_alert_off": 11.7, "batt_alert_on": 11.5, "dlnrid": "KA-0119", "level_alert": 1, "level_alert_off": 7.0, "level_alert_on": 8.0, "name": "Mauka"}, "type": "Feature"}, {"geometry": {"coordinates": [-159.364747, 22.006167], "type": "Point"}, "id": "EDD07484", "properties": {"batt_1w_slope": 4.0866139120034566e-07, "batt_alert": 2, "batt_alert_off": 11.7, "batt_alert_on": 11.5, "dlnrid": "KA-0014", "level_alert": 1, "level_alert_off": 241.0, "level_alert_on": 242.0, "name": "Okinawa"}, "type": "Feature"}, {"geometry": {"coordinates": [-159.525814, 21.956375], "type": "Point"}, "id": "EDD07A56", "properties": {"batt_1w_slope": -2.0577044697739441e-07, "batt_alert": 2, "batt_alert_off": 11.7, "batt_alert_on": 11.5, "dlnrid": "KA-0098", "level_alert": 1, "level_alert_off": 99.0, "level_alert_on": 100.0, "name": "Alexander"}, "type": "Feature"}, {"geometry": {"coordinates": [-159.432781, 21.965628], "type": "Point"}, "id": "EDD08400", "properties": {"batt_1w_slope": -3.706442188513233e-07, "batt_alert": 2, "batt_alert_off": 11.7, "batt_alert_on": 11.5, "dlnrid": "KA-0121", "level_alert": 1, "level_alert_off": 426.0, "level_alert_on": 427.0, "name": "Halenanahu"}, "type": "Feature"}, {"geometry": {"coordinates": [-159.461281, 21.972675], "type": "Point"}, "id": "EDD08AD2", "properties": {"batt_1w_slope": -2.5780475693159435e-07, "batt_alert": 2, "batt_alert_off": 11.7, "batt_alert_on": 11.5, "dlnrid": "KA-0120", "level_alert": 1, "level_alert_off": 37.0, "level_alert_on": 38.0, "name": "Papuaa"}, "type": "Feature"}, {"geometry": {"coordinates": [-159.536083, 21.920333], "type": "Point"}, "id": "EDD09776", "properties": {"batt_1w_slope": 0.0, "batt_alert": 0, "batt_alert_off": 11.7, "batt_alert_on": 11.5, "dlnrid": "KA-0109", "level_alert": 0, "level_alert_off": 29.0, "level_alert_on": 30.0, "name": "Ipuolono"}, "type": "Feature"}, {"geometry": {"coordinates": [-157.804875, 21.390492], "type": "Point"}, "id": "EDD099A4", "properties": {"batt_1w_slope": 2.4807999636714036e-07, "batt_alert": 2, "batt_alert_off": 11.7, "batt_alert_on": 11.5, "dlnrid": "OA-0124", "level_alert": 1, "level_alert_off": 166.3, "level_alert_on": 167.3, "name": "Kaneohe"}, "type": "Feature"}, {"geometry": {"coordinates": [-157.80695, 21.353586], "type": "Point"}, "id": "EDD0A2EC", "properties": {"batt_1w_slope": 1.49909605367533e-07, "batt_alert": 2, "batt_alert_off": 11.7, "batt_alert_on": 11.5, "dlnrid": "OA-0001", "level_alert": 1, "level_alert_off": 30.0, "level_alert_on": 33.0, "name": "Nuuanu No 4"}, "type": "Feature"}, {"geometry": {"coordinates": [-159.371319, 22.131586], "type": "Point"}, "id": "EDD0AC3E", "properties": {"batt_1w_slope": 1.612640240731013e-07, "batt_alert": 2, "batt_alert_off": 11.7, "batt_alert_on": 11.5, "dlnrid": "KA-0015", "level_alert": 1, "level_alert_off": 30.0, "level_alert_on": 31.0, "name": "Kaneha"}, "type": "Feature"}, {"geometry": {"coordinates": [-159.362306, 22.115397], "type": "Point"}, "id": "EDD0B19A", "properties": {"batt_1w_slope": -1.6702783854520575e-07, "batt_alert": 2, "batt_alert_off": 11.7, "batt_alert_on": 11.5, "dlnrid": "KA-0016", "level_alert": 1, "level_alert_off": 31.5, "level_alert_on": 32.5, "name": "Mimino"}, "type": "Feature"}], "type": "FeatureCollection"}
