{"features": [{"geometry": {"coordinates": [-159.449569, 21.909064], "type": "Point"}, "id": "EDD00214", "properties": {"alert_off": 17.0, "alert_on": 19.0, "dlnrid": "KA-0099", "name": "Waita"}, "type": "Feature"}, {"geometry": {"coordinates": [-159.374047, 22.199978], "type": "Point"}, "id": "EDD00CC6", "properties": {"alert_off": 11.0, "alert_on": 12.0, "dlnrid": "KA-0010", "name": "Waiakalua"}, "type": "Feature"}, {"geometry": {"coordinates": [-156.355928, 20.887344], "type": "Point"}, "id": "EDD01162", "properties": {"alert_off": 13.0, "alert_on": 14.0, "dlnrid": "MA-0073", "name": "HC&S #24"}, "type": "Feature"}, {"geometry": {"coordinates": [-156.295303, 20.913631], "type": "Point"}, "id": "EDD01FB0", "properties": {"alert_off": 38.5, "alert_on": 39.5, "dlnrid": "MA-0093", "name": "Kaupakalua"}, "type": "Feature"}, {"geometry": {"coordinates": [-157.836839, 21.339133], "type": "Point"}, "id": "EDD024F8", "properties": {"alert_off": 393.0, "alert_on": 394.0, "dlnrid": "OA-0154", "name": "Nuuanu No 1"}, "type": "Feature"}, {"geometry": {"coordinates": [-158.027664, 21.570833], "type": "Point"}, "id": "EDD02A2A", "properties": {"alert_off": 980.4, "alert_on": 981.4, "dlnrid": "OA-0018", "name": "Opaeula 01"}, "type": "Feature"}, {"geometry": {"coordinates": [-159.396256, 22.017019], "type": "Point"}, "id": "EDD0378E", "properties": {"alert_off": 44.0, "alert_on": 45.0, "dlnrid": "KA-0012", "name": "Kapaia"}, "type": "Feature"}, {"geometry": {"coordinates": [-159.400633, 22.063525], "type": "Point"}, "id": "EDD0395C", "properties": {"alert_off": 30.0, "alert_on": 31.0, "dlnrid": "KA-0060", "name": "Wailua"}, "type": "Feature"}, {"geometry": {"coordinates": [-159.493603, 21.912761], "type": "Point"}, "id": "EDD0411E", "properties": {"alert_off": 48.0, "alert_on": 49.0, "dlnrid": "KA-0103", "name": "Aepo"}, "type": "Feature"}, {"geometry": {"coordinates": [-159.497156, 21.922019], "type": "Point"}, "id": "EDD04FCC", "properties": {"alert_off": 27.0, "alert_on": 28.0, "dlnrid": "KA-0104", "name": "Huinawai"}, "type": "Feature"}, {"geometry": {"coordinates": [-159.488244, 21.896681], "type": "Point"}, "id": "EDD05268", "properties": {"alert_off": 33.0, "alert_on": 34.0, "dlnrid": "KA-0112", "name": "Aepoeha"}, "type": "Feature"}, {"geometry": {"coordinates": [-159.528314, 21.927792], "type": "Point"}, "id": "EDD05CBA", "properties": {"alert_off": 21.0, "alert_on": 22.0, "dlnrid": "KA-0117", "name": "Elua"}, "type": "Feature"}, {"geometry": {"coordinates": [-159.430961, 22.186617], "type": "Point"}, "id": "EDD067F2", "properties": {"alert_off": 9.5, "alert_on": 10.5, "dlnrid": "KA-0024", "name": "Kalihiwai"}, "type": "Feature"}, {"geometry": {"coordinates": [-159.468631, 21.941389], "type": "Point"}, "id": "EDD06920", "properties": {"alert_off": 7.0, "alert_on": 8.0, "dlnrid": "KA-0119", "name": "Mauka"}, "type": "Feature"}, {"geometry": {"coordinates": [-159.364747, 22.006167], "type": "Point"}, "id": "EDD07484", "properties": {"alert_off": 241.0, "alert_on": 242.0, "dlnrid": "KA-0014", "name": "Okinawa"}, "type": "Feature"}, {"geometry": {"coordinates": [-159.525814, 21.956375], "type": "Point"}, "id": "EDD07A56", "properties": {"alert_off": 99.0, "alert_on": 100.0, "dlnrid": "KA-0098", "name": "Alexander"}, "type": "Feature"}, {"geometry": {"coordinates": [-159.432781, 21.965628], "type": "Point"}, "id": "EDD08400", "properties": {"alert_off": 426.0, "alert_on": 427.0, "dlnrid": "KA-0121", "name": "Halenanahu"}, "type": "Feature"}, {"geometry": {"coordinates": [-159.461281, 21.972675], "type": "Point"}, "id": "EDD08AD2", "properties": {"alert_off": 37.0, "alert_on": 38.0, "dlnrid": "KA-0120", "name": "Papuaa"}, "type": "Feature"}, {"geometry": {"coordinates": [-159.536083, 21.920333], "type": "Point"}, "id": "EDD09776", "properties": {"alert_off": 29.0, "alert_on": 30.0, "dlnrid": "KA-0109", "name": "Ipuolono"}, "type": "Feature"}, {"geometry": {"coordinates": [-157.804875, 21.390492], "type": "Point"}, "id": "EDD099A4", "properties": {"alert_off": 166.3, "alert_on": 167.3, "dlnrid": "OA-0124", "name": "Kaneohe"}, "type": "Feature"}, {"geometry": {"coordinates": [-157.80695, 21.353586], "type": "Point"}, "id": "EDD0A2EC", "properties": {"alert_off": 30.0, "alert_on": 33.0, "dlnrid": "OA-0001", "name": "Nuuanu No 4"}, "type": "Feature"}, {"geometry": {"coordinates": [-159.371319, 22.131586], "type": "Point"}, "id": "EDD0AC3E", "properties": {"alert_off": 30.0, "alert_on": 31.0, "dlnrid": "KA-0015", "name": "Kaneha"}, "type": "Feature"}, {"geometry": {"coordinates": [-159.362306, 22.115397], "type": "Point"}, "id": "EDD0B19A", "properties": {"alert_off": 31.5, "alert_on": 32.5, "dlnrid": "KA-0016", "name": "Mimino"}, "type": "Feature"}], "type": "FeatureCollection"}