{"features": [{"geometry": {"coordinates": [-159.449569, 21.909064], "type": "Point"}, "id": "EDD00214", "properties": {"batt_1w_slope": 7.236063568557271e-08, "batt_alert": 0, "batt_alert_off": 11.7, "batt_alert_on": 11.5, "dlnrid": "KA-0099", "level_alert": 0, "level_alert_off": 17.0, "level_alert_on": 19.0, "name": "Waita"}, "type": "Feature"}, {"geometry": {"coordinates": [-159.374047, 22.199978], "type": "Point"}, "id": "EDD00CC6", "properties": {"batt_1w_slope": 5.36993515915576e-08, "batt_alert": 0, "batt_alert_off": 11.7, "batt_alert_on": 11.5, "dlnrid": "KA-0010", "level_alert": 0, "level_alert_off": 11.0, "level_alert_on": 12.0, "name": "Waiakalua"}, "type": "Feature"}, {"geometry": {"coordinates": [-156.355928, 20.887344], "type": "Point"}, "id": "EDD01162", "properties": {"batt_1w_slope": -1.9483596065267937e-09, "batt_alert": 3, "batt_alert_off": 11.7, "batt_alert_on": 11.5, "dlnrid": "MA-0073", "level_alert": 0, "level_alert_off": 21.0, "level_alert_on": 22.0, "name": "HC&S #24"}, "type": "Feature"}, {"geometry": {"coordinates": [-156.295303, 20.913631], "type": "Point"}, "id": "EDD01FB0", "properties": {"batt_1w_slope": 0.0, "batt_alert": 0, "batt_alert_off": 11.7, "batt_alert_on": 11.5, "dlnrid": "MA-0093", "level_alert": 0, "level_alert_off": 34.4, "level_alert_on": 35.4, "name": "Kaupakalua"}, "type": "Feature"}, {"geometry": {"coordinates": [-157.836839, 21.339133], "type": "Point"}, "id": "EDD024F8", "properties": {"batt_1w_slope": 8.383294121248844e-08, "batt_alert": 0, "batt_alert_off": 11.7, "batt_alert_on": 11.5, "dlnrid": "OA-0154", "level_alert": 0, "level_alert_off": 393.0, "level_alert_on": 394.0, "name": "Nuuanu No 1"}, "type": "Feature"}, {"geometry": {"coordinates": [-158.027664, 21.570833], "type": "Point"}, "id": "EDD02A2A", "properties": {"batt_1w_slope": 9.139585245230939e-09, "batt_alert": 0, "batt_alert_off": 11.7, "batt_alert_on": 11.5, "dlnrid": "OA-0018", "level_alert": 0, "level_alert_off": 980.4, "level_alert_on": 981.4, "name": "Opaeula 01"}, "type": "Feature"}, {"geometry": {"coordinates": [-159.396256, 22.017019], "type": "Point"}, "id": "EDD0378E", "properties": {"batt_1w_slope": 5.370422162726939e-08, "batt_alert": 0, "batt_alert_off": 11.7, "batt_alert_on": 11.5, "dlnrid": "KA-0012", "level_alert": 0, "level_alert_off": 44.0, "level_alert_on": 45.0, "name": "Kapaia"}, "type": "Feature"}, {"geometry": {"coordinates": [-159.400633, 22.063525], "type": "Point"}, "id": "EDD0395C", "properties": {"batt_1w_slope": 5.912182784410969e-08, "batt_alert": 0, "batt_alert_off": 11.7, "batt_alert_on": 11.5, "dlnrid": "KA-0060", "level_alert": 0, "level_alert_off": 29.5, "level_alert_on": 30.5, "name": "Wailua"}, "type": "Feature"}, {"geometry": {"coordinates": [-159.493603, 21.912761], "type": "Point"}, "id": "EDD0411E", "properties": {"batt_1w_slope": 3.4036905568799626e-08, "batt_alert": 0, "batt_alert_off": 11.7, "batt_alert_on": 11.5, "dlnrid": "KA-0103", "level_alert": 0, "level_alert_off": 48.0, "level_alert_on": 49.0, "name": "Aepo"}, "type": "Feature"}, {"geometry": {"coordinates": [-159.497156, 21.922019], "type": "Point"}, "id": "EDD04FCC", "properties": {"batt_1w_slope": 9.15871288419461e-08, "batt_alert": 0, "batt_alert_off": 11.7, "batt_alert_on": 11.5, "dlnrid": "KA-0104", "level_alert": 0, "level_alert_off": 27.0, "level_alert_on": 28.0, "name": "Huinawai"}, "type": "Feature"}, {"geometry": {"coordinates": [-159.488244, 21.896681], "type": "Point"}, "id": "EDD05268", "properties": {"batt_1w_slope": 6.680872433256197e-08, "batt_alert": 0, "batt_alert_off": 11.7, "batt_alert_on": 11.5, "dlnrid": "KA-0112", "level_alert": 0, "level_alert_off": 33.0, "level_alert_on": 34.0, "name": "Aepoeha"}, "type": "Feature"}, {"geometry": {"coordinates": [-159.528314, 21.927792], "type": "Point"}, "id": "EDD05CBA", "properties": {"batt_1w_slope": 6.420287193450897e-08, "batt_alert": 0, "batt_alert_off": 11.7, "batt_alert_on": 11.5, "dlnrid": "KA-0117", "level_alert": 0, "level_alert_off": 21.0, "level_alert_on": 22.0, "name": "Elua"}, "type": "Feature"}, {"geometry": {"coordinates": [-159.430961, 22.186617], "type": "Point"}, "id": "EDD067F2", "properties": {"batt_1w_slope": 1.0627035631735526e-07, "batt_alert": 0, "batt_alert_off": 11.7, "batt_alert_on": 11.5, "dlnrid": "KA-0024", "level_alert": 0, "level_alert_off": 9.5, "level_alert_on": 10.5, "name": "Kalihiwai"}, "type": "Feature"}, {"geometry": {"coordinates": [-159.468631, 21.941389], "type": "Point"}, "id": "EDD06920", "properties": {"batt_1w_slope": 7.408977809393442e-08, "batt_alert": 0, "batt_alert_off": 11.7, "batt_alert_on": 11.5, "dlnrid": "KA-0119", "level_alert": 0, "level_alert_off": 7.0, "level_alert_on": 8.0, "name": "Mauka"}, "type": "Feature"}, {"geometry": {"coordinates": [-159.364747, 22.006167], "type": "Point"}, "id": "EDD07484", "properties": {"batt_1w_slope": 6.304124924120117e-08, "batt_alert": 0, "batt_alert_off": 11.7, "batt_alert_on": 11.5, "dlnrid": "KA-0014", "level_alert": 0, "level_alert_off": 241.0, "level_alert_on": 242.0, "name": "Okinawa"}, "type": "Feature"}, {"geometry": {"coordinates": [-159.525814, 21.956375], "type": "Point"}, "id": "EDD07A56", "properties": {"batt_1w_slope": 5.005044767441883e-08, "batt_alert": 0, "batt_alert_off": 11.7, "batt_alert_on": 11.5, "dlnrid": "KA-0098", "level_alert": 0, "level_alert_off": 99.0, "level_alert_on": 100.0, "name": "Alexander"}, "type": "Feature"}, {"geometry": {"coordinates": [-159.432781, 21.965628], "type": "Point"}, "id": "EDD08400", "properties": {"batt_1w_slope": 9.16997296267241e-08, "batt_alert": 0, "batt_alert_off": 11.7, "batt_alert_on": 11.5, "dlnrid": "KA-0121", "level_alert": 0, "level_alert_off": 18.4, "level_alert_on": 19.4, "name": "Halenanahu"}, "type": "Feature"}, {"geometry": {"coordinates": [-159.461281, 21.972675], "type": "Point"}, "id": "EDD08AD2", "properties": {"batt_1w_slope": 6.33420610876601e-08, "batt_alert": 0, "batt_alert_off": 11.7, "batt_alert_on": 11.5, "dlnrid": "KA-0120", "level_alert": 0, "level_alert_off": 37.0, "level_alert_on": 38.0, "name": "Papuaa"}, "type": "Feature"}, {"geometry": {"coordinates": [-159.536083, 21.920333], "type": "Point"}, "id": "EDD09776", "properties": {"batt_1w_slope": 0.0, "batt_alert": 0, "batt_alert_off": 11.7, "batt_alert_on": 11.5, "dlnrid": "KA-0109", "level_alert": 0, "level_alert_off": 29.0, "level_alert_on": 30.0, "name": "Ipuolono"}, "type": "Feature"}, {"geometry": {"coordinates": [-157.804875, 21.390492], "type": "Point"}, "id": "EDD099A4", "properties": {"batt_1w_slope": 5.3313932314779355e-08, "batt_alert": 0, "batt_alert_off": 11.7, "batt_alert_on": 11.5, "dlnrid": "OA-0124", "level_alert": 0, "level_alert_off": 166.3, "level_alert_on": 166.8, "name": "Kaneohe"}, "type": "Feature"}, {"geometry": {"coordinates": [-157.80695, 21.353586], "type": "Point"}, "id": "EDD0A2EC", "properties": {"batt_1w_slope": 4.014526444003351e-08, "batt_alert": 0, "batt_alert_off": 11.7, "batt_alert_on": 11.5, "dlnrid": "OA-0001", "level_alert": 0, "level_alert_off": 30.0, "level_alert_on": 33.0, "name": "Nuuanu No 4"}, "type": "Feature"}, {"geometry": {"coordinates": [-159.371319, 22.131586], "type": "Point"}, "id": "EDD0AC3E", "properties": {"batt_1w_slope": 6.455496750225897e-08, "batt_alert": 0, "batt_alert_off": 11.7, "batt_alert_on": 11.5, "dlnrid": "KA-0015", "level_alert": 0, "level_alert_off": 30.0, "level_alert_on": 30.5, "name": "Kaneha"}, "type": "Feature"}, {"geometry": {"coordinates": [-159.362306, 22.115397], "type": "Point"}, "id": "EDD0B19A", "properties": {"batt_1w_slope": 5.8155329516549275e-08, "batt_alert": 0, "batt_alert_off": 11.7, "batt_alert_on": 11.5, "dlnrid": "KA-0016", "level_alert": 0, "level_alert_off": 31.5, "level_alert_on": 32.0, "name": "Mimino"}, "type": "Feature"}, {"geometry": {"coordinates": [-156.257778, 20.913306], "type": "Point"}, "id": "EDD0BF48", "properties": {"batt_1w_slope": 5.8348429423493705e-08, "batt_alert": 0, "batt_alert_off": 11.7, "batt_alert_on": 11.5, "dlnrid": "MA-0094", "level_alert": 0, "level_alert_off": 19.0, "level_alert_on": 20.0, "name": "Kapalaalea "}, "type": "Feature"}, {"geometry": {"coordinates": [-156.326806, 20.919694], "type": "Point"}, "id": "EDD0C70A", "properties": {"batt_1w_slope": 2.8860989835196875e-08, "batt_alert": 0, "batt_alert_off": 11.7, "batt_alert_on": 11.5, "dlnrid": "MA-0095", "level_alert": 0, "level_alert_off": 19.0, "level_alert_on": 20.0, "name": "Haiku "}, "type": "Feature"}, {"geometry": {"coordinates": [-156.323028, 20.919306], "type": "Point"}, "id": "EDD0C9D8", "properties": {"batt_1w_slope": 1.0321029762365951e-07, "batt_alert": 0, "batt_alert_off": 11.7, "batt_alert_on": 11.5, "dlnrid": "MA-0096", "level_alert": 0, "level_alert_off": 26.0, "level_alert_on": 27.0, "name": "Pauwela"}, "type": "Feature"}, {"geometry": {"coordinates": [-156.347528, 20.904889], "type": "Point"}, "id": "EDD0D47C", "properties": {"batt_1w_slope": 6.526660869079962e-08, "batt_alert": 0, "batt_alert_off": 11.7, "batt_alert_on": 11.5, "dlnrid": "MA-0069", "level_alert": 0, "level_alert_off": 29.0, "level_alert_on": 30.0, "name": "#15"}, "type": "Feature"}, {"geometry": {"coordinates": [-156.348722, 20.910694], "type": "Point"}, "id": "EDD0DAAE", "properties": {"batt_1w_slope": 5.694230027868746e-08, "batt_alert": 0, "batt_alert_off": 11.7, "batt_alert_on": 11.5, "dlnrid": "MA-0068", "level_alert": 0, "level_alert_off": 17.0, "level_alert_on": 18.0, "name": "#14"}, "type": "Feature"}, {"geometry": {"coordinates": [-157.8155, 21.297556], "type": "Point"}, "id": "EDD11398", "properties": {"batt_1w_slope": 0.0, "batt_alert": 0, "batt_alert_off": 11.7, "batt_alert_on": 11.5, "dlnrid": "OA-0000", "level_alert": 0, "level_alert_off": 19.0, "level_alert_on": 20.0, "name": "Test"}, "type": "Feature"}], "type": "FeatureCollection"}