{"features": [{"geometry": {"coordinates": [-159.4496, 21.9091], "type": "Point"}, "id": "EDD00214", "properties": {"batt_1w_slope": -1.3378047274742493e-07, "batt_alert": 1, "batt_alert_off": 11.7, "batt_alert_on": 11.5, "dlnrid": "KA-0099", "level_alert": 0, "level_alert_off": 17.0, "level_alert_on": 19.0, "name": "Waita", "sensor_type": "radar"}, "type": "Feature"}, {"geometry": {"coordinates": [-159.374, 22.2], "type": "Point"}, "id": "EDD00CC6", "properties": {"batt_1w_slope": -1.0760043729549628e-07, "batt_alert": 1, "batt_alert_off": 11.7, "batt_alert_on": 11.5, "dlnrid": "KA-0010", "level_alert": 0, "level_alert_off": 11.0, "level_alert_on": 12.0, "name": "Waiakalua", "sensor_type": "radar"}, "type": "Feature"}, {"geometry": {"coordinates": [-156.3559, 20.8873], "type": "Point"}, "id": "EDD01162", "properties": {"batt_1w_slope": -8.888399911060352e-08, "batt_alert": 1, "batt_alert_off": 11.7, "batt_alert_on": 11.5, "dlnrid": "MA-0073", "level_alert": 0, "level_alert_off": 21.0, "level_alert_on": 22.0, "name": "HC&S #24", "sensor_type": "pressure"}, "type": "Feature"}, {"geometry": {"coordinates": [-157.8368, 21.3391], "type": "Point"}, "id": "EDD024F8", "properties": {"batt_1w_slope": -1.5845470705756306e-07, "batt_alert": 1, "batt_alert_off": 11.7, "batt_alert_on": 11.5, "dlnrid": "OA-0154", "level_alert": 0, "level_alert_off": 393.0, "level_alert_on": 394.0, "name": "Nuuanu No 1", "sensor_type": "pressure"}, "type": "Feature"}, {"geometry": {"coordinates": [-158.0277, 21.5708], "type": "Point"}, "id": "EDD02A2A", "properties": {"batt_1w_slope": -5.701243650964358e-08, "batt_alert": 1, "batt_alert_off": 11.7, "batt_alert_on": 11.5, "dlnrid": "OA-0018", "level_alert": 0, "level_alert_off": 980.4, "level_alert_on": 981.4, "name": "Opaeula 01", "sensor_type": "bubbler"}, "type": "Feature"}, {"geometry": {"coordinates": [-159.3963, 22.017], "type": "Point"}, "id": "EDD0378E", "properties": {"batt_1w_slope": -8.807190291536068e-08, "batt_alert": 1, "batt_alert_off": 11.7, "batt_alert_on": 11.5, "dlnrid": "KA-0012", "level_alert": 0, "level_alert_off": 44.0, "level_alert_on": 45.0, "name": "Kapaia", "sensor_type": "radar"}, "type": "Feature"}, {"geometry": {"coordinates": [-159.4006, 22.0635], "type": "Point"}, "id": "EDD0395C", "properties": {"batt_1w_slope": -4.9253303091936736e-08, "batt_alert": 1, "batt_alert_off": 11.7, "batt_alert_on": 11.5, "dlnrid": "KA-0060", "level_alert": 0, "level_alert_off": 29.5, "level_alert_on": 30.5, "name": "Wailua", "sensor_type": "radar"}, "type": "Feature"}, {"geometry": {"coordinates": [-159.4936, 21.9128], "type": "Point"}, "id": "EDD0411E", "properties": {"batt_1w_slope": -6.937476118718306e-08, "batt_alert": 1, "batt_alert_off": 11.7, "batt_alert_on": 11.5, "dlnrid": "KA-0103", "level_alert": 0, "level_alert_off": 48.0, "level_alert_on": 49.0, "name": "Aepo", "sensor_type": "radar"}, "type": "Feature"}, {"geometry": {"coordinates": [-159.4972, 21.922], "type": "Point"}, "id": "EDD04FCC", "properties": {"batt_1w_slope": -1.6966085582393508e-07, "batt_alert": 1, "batt_alert_off": 11.7, "batt_alert_on": 11.5, "dlnrid": "KA-0104", "level_alert": 0, "level_alert_off": 27.0, "level_alert_on": 28.0, "name": "Huinawai", "sensor_type": "radar"}, "type": "Feature"}, {"geometry": {"coordinates": [-159.4882, 21.8967], "type": "Point"}, "id": "EDD05268", "properties": {"batt_1w_slope": -5.028591852201972e-08, "batt_alert": 1, "batt_alert_off": 11.7, "batt_alert_on": 11.5, "dlnrid": "KA-0112", "level_alert": 0, "level_alert_off": 33.0, "level_alert_on": 34.0, "name": "Aepoeha", "sensor_type": "bubbler"}, "type": "Feature"}, {"geometry": {"coordinates": [-159.5283, 21.9278], "type": "Point"}, "id": "EDD05CBA", "properties": {"batt_1w_slope": -1.02586909534927e-07, "batt_alert": 1, "batt_alert_off": 11.7, "batt_alert_on": 11.5, "dlnrid": "KA-0117", "level_alert": 0, "level_alert_off": 21.0, "level_alert_on": 22.0, "name": "Elua", "sensor_type": "bubbler"}, "type": "Feature"}, {"geometry": {"coordinates": [-159.431, 22.1866], "type": "Point"}, "id": "EDD067F2", "properties": {"batt_1w_slope": -1.2461245336214767e-07, "batt_alert": 1, "batt_alert_off": 11.7, "batt_alert_on": 11.5, "dlnrid": "KA-0024", "level_alert": 0, "level_alert_off": 9.5, "level_alert_on": 10.5, "name": "Kalihiwai", "sensor_type": "bubbler"}, "type": "Feature"}, {"geometry": {"coordinates": [-159.4686, 21.9414], "type": "Point"}, "id": "EDD06920", "properties": {"batt_1w_slope": -1.3533401138653014e-07, "batt_alert": 1, "batt_alert_off": 11.7, "batt_alert_on": 11.5, "dlnrid": "KA-0119", "level_alert": 0, "level_alert_off": 7.0, "level_alert_on": 8.0, "name": "Mauka", "sensor_type": "radar"}, "type": "Feature"}, {"geometry": {"coordinates": [-159.3647, 22.0062], "type": "Point"}, "id": "EDD07484", "properties": {"batt_1w_slope": -1.7739217253870358e-06, "batt_alert": 3, "batt_alert_off": 11.7, "batt_alert_on": 11.5, "dlnrid": "KA-0014", "level_alert": 0, "level_alert_off": 241.0, "level_alert_on": 242.0, "name": "Okinawa", "sensor_type": "radar"}, "type": "Feature"}, {"geometry": {"coordinates": [-159.5258, 21.9564], "type": "Point"}, "id": "EDD07A56", "properties": {"batt_1w_slope": -8.065028123248618e-08, "batt_alert": 1, "batt_alert_off": 11.7, "batt_alert_on": 11.5, "dlnrid": "KA-0098", "level_alert": 0, "level_alert_off": 99.0, "level_alert_on": 100.0, "name": "Alexander", "sensor_type": "bubbler"}, "type": "Feature"}, {"geometry": {"coordinates": [-159.4328, 21.9656], "type": "Point"}, "id": "EDD08400", "properties": {"batt_1w_slope": -1.6120561342161641e-07, "batt_alert": 1, "batt_alert_off": 11.7, "batt_alert_on": 11.5, "dlnrid": "KA-0121", "level_alert": 0, "level_alert_off": 18.4, "level_alert_on": 19.4, "name": "Halenanahu", "sensor_type": "bubbler"}, "type": "Feature"}, {"geometry": {"coordinates": [-159.4613, 21.9727], "type": "Point"}, "id": "EDD08AD2", "properties": {"batt_1w_slope": 1.7073262997441948e-07, "batt_alert": 0, "batt_alert_off": 11.7, "batt_alert_on": 11.5, "dlnrid": "KA-0120", "level_alert": 0, "level_alert_off": 37.0, "level_alert_on": 38.0, "name": "Papuaa", "sensor_type": "bubbler"}, "type": "Feature"}, {"geometry": {"coordinates": [-157.8049, 21.3905], "type": "Point"}, "id": "EDD099A4", "properties": {"batt_1w_slope": -6.443809563377485e-08, "batt_alert": 1, "batt_alert_off": 11.7, "batt_alert_on": 11.5, "dlnrid": "OA-0124", "level_alert": 0, "level_alert_off": 166.3, "level_alert_on": 166.8, "name": "Kaneohe", "sensor_type": "radar"}, "type": "Feature"}, {"geometry": {"coordinates": [-157.807, 21.3536], "type": "Point"}, "id": "EDD0A2EC", "properties": {"batt_1w_slope": -6.452711329476628e-08, "batt_alert": 1, "batt_alert_off": 11.7, "batt_alert_on": 11.5, "dlnrid": "OA-0001", "level_alert": 0, "level_alert_off": 30.0, "level_alert_on": 33.0, "name": "Nuuanu No 4", "sensor_type": "pressure"}, "type": "Feature"}, {"geometry": {"coordinates": [-159.3713, 22.1316], "type": "Point"}, "id": "EDD0AC3E", "properties": {"batt_1w_slope": -7.602030535347993e-08, "batt_alert": 2, "batt_alert_off": 11.7, "batt_alert_on": 11.5, "dlnrid": "KA-0015", "level_alert": 0, "level_alert_off": 30.0, "level_alert_on": 30.5, "name": "Kaneha", "sensor_type": "radar"}, "type": "Feature"}, {"geometry": {"coordinates": [-159.3623, 22.1154], "type": "Point"}, "id": "EDD0B19A", "properties": {"batt_1w_slope": -2.1036761307565094e-07, "batt_alert": 2, "batt_alert_off": 11.7, "batt_alert_on": 11.5, "dlnrid": "KA-0016", "level_alert": 0, "level_alert_off": 31.5, "level_alert_on": 32.0, "name": "Mimino", "sensor_type": "radar"}, "type": "Feature"}, {"geometry": {"coordinates": [-156.2578, 20.9133], "type": "Point"}, "id": "EDD0BF48", "properties": {"batt_1w_slope": -8.722999955664453e-08, "batt_alert": 1, "batt_alert_off": 11.7, "batt_alert_on": 11.5, "dlnrid": "MA-0094", "level_alert": 0, "level_alert_off": 19.0, "level_alert_on": 20.0, "name": "Kapalaalea ", "sensor_type": "pressure"}, "type": "Feature"}, {"geometry": {"coordinates": [-156.3268, 20.9197], "type": "Point"}, "id": "EDD0C70A", "properties": {"batt_1w_slope": -5.970748477097602e-08, "batt_alert": 1, "batt_alert_off": 11.7, "batt_alert_on": 11.5, "dlnrid": "MA-0095", "level_alert": 0, "level_alert_off": 19.0, "level_alert_on": 20.0, "name": "Haiku ", "sensor_type": "pressure"}, "type": "Feature"}, {"geometry": {"coordinates": [-156.323, 20.9193], "type": "Point"}, "id": "EDD0C9D8", "properties": {"batt_1w_slope": -1.468185114283252e-07, "batt_alert": 1, "batt_alert_off": 11.7, "batt_alert_on": 11.5, "dlnrid": "MA-0096", "level_alert": 0, "level_alert_off": 26.0, "level_alert_on": 27.0, "name": "Pauwela", "sensor_type": "pressure"}, "type": "Feature"}, {"geometry": {"coordinates": [-156.3475, 20.9049], "type": "Point"}, "id": "EDD0D47C", "properties": {"batt_1w_slope": -9.091712126994971e-08, "batt_alert": 1, "batt_alert_off": 11.7, "batt_alert_on": 11.5, "dlnrid": "MA-0069", "level_alert": 0, "level_alert_off": 29.0, "level_alert_on": 30.0, "name": "#15", "sensor_type": "pressure"}, "type": "Feature"}, {"geometry": {"coordinates": [-156.3487, 20.9107], "type": "Point"}, "id": "EDD0DAAE", "properties": {"batt_1w_slope": -1.1844020147751309e-07, "batt_alert": 1, "batt_alert_off": 11.7, "batt_alert_on": 11.5, "dlnrid": "MA-0068", "level_alert": 0, "level_alert_off": 17.0, "level_alert_on": 18.0, "name": "#14", "sensor_type": "pressure"}, "type": "Feature"}, {"geometry": {"coordinates": [-157.8155, 21.2976], "type": "Point"}, "id": "EDD11398", "properties": {"batt_1w_slope": 0.0, "batt_alert": 0, "batt_alert_off": 11.7, "batt_alert_on": 11.5, "dlnrid": "OA-0000", "level_alert": 0, "level_alert_off": 19.0, "level_alert_on": 20.0, "name": "Test", "sensor_type": "None"}, "type": "Feature"}], "type": "FeatureCollection"}